{"type":"FeatureCollection","features":[{"type":"Feature","geometry":{"type":"Point","coordinates":[44.0499,-123.094]},"properties":{"name":"john henrys","state":"OR","country":"US","postal_code":"97401","city":"Eugene","capacity":null,"popularity":null,"address":"77 w broadway","url":"https://seatgeek.com/venues/john-henrys/tickets","timezone":"America/Los_Angeles","latitude":"44.0499","longitude":"-123.094","description":null,"phone":null,"metroarea_name":null,"_id":null}},{"type":"Feature","geometry":{"type":"Point","coordinates":[34.45,-119.25]},"properties":{"name":"libbey bowl","state":"CA","country":"US","postal_code":"93023","city":"Ojai","capacity":null,"popularity":null,"address":"210 s. signal st.","url":"https://seatgeek.com/venues/libbey-bowl/tickets","timezone":"America/Los_Angeles","latitude":"34.45","longitude":"-119.25","description":null,"phone":null,"metroarea_name":null,"_id":null}},{"type":"Feature","geometry":{"type":"Point","coordinates":[32.7503,-116.994]},"properties":{"name":"faith chapel","state":"CA","country":"US","postal_code":"91977","city":"Spring Valley","capacity":null,"popularity":null,"address":"9400 campo road","url":"https://seatgeek.com/venues/faith-chapel-2/tickets","timezone":"America/Los_Angeles","latitude":"32.7503","longitude":"-116.994","description":null,"phone":null,"metroarea_name":null,"_id":null}},{"type":"Feature","geometry":{"type":"Point","coordinates":[37.638,-120.848]},"properties":{"name":"the fruit yard","state":"CA","country":"US","postal_code":"95357","city":"Modesto","capacity":null,"popularity":null,"address":"7948 yosemite boulevard","url":"https://seatgeek.com/venues/the-fruit-yard/tickets","timezone":"America/Los_Angeles","latitude":"37.638","longitude":"-120.848","description":null,"phone":null,"metroarea_name":null,"_id":null}},{"type":"Feature","geometry":{"type":"Point","coordinates":[34.1489,-118.254]},"properties":{"name":"alex theatre","state":"CA","country":"US","postal_code":"91203","city":"Glendale","capacity":null,"popularity":null,"address":"216 north brand boulevard","url":"https://seatgeek.com/venues/alex-theatre/tickets","timezone":"America/Los_Angeles","latitude":"34.1489","longitude":"-118.254","description":null,"phone":null,"metroarea_name":null,"_id":null}},{"type":"Feature","geometry":{"type":"Point","coordinates":[47.9788,-122.208]},"properties":{"name":"historic everett theatre","state":"WA","country":"US","postal_code":"98201","city":"Everett","capacity":null,"popularity":null,"address":"2911 colby ave","url":"https://seatgeek.com/venues/historic-everett-theatre/tickets","timezone":"America/Los_Angeles","latitude":"47.9788","longitude":"-122.208","description":null,"phone":null,"metroarea_name":null,"_id":null}},{"type":"Feature","geometry":{"type":"Point","coordinates":[39.6577,-104.988]},"properties":{"name":"gothic theatre","state":"CO","country":"US","postal_code":"80110","city":"Englewood","capacity":700,"popularity":null,"address":"3263 south broadway","url":"https://seatgeek.com/venues/gothic-theatre/tickets","timezone":"America/Denver","latitude":"39.6577","longitude":"-104.988","description":null,"phone":null,"metroarea_name":null,"_id":null}},{"type":"Feature","geometry":{"type":"Point","coordinates":[34.0991,-84.5206]},"properties":{"name":"madlife stage & studios","state":"GA","country":"US","postal_code":"30188","city":"Woodstock","capacity":null,"popularity":null,"address":"8722 main st.","url":"https://seatgeek.com/venues/madlife-stage-studios/tickets","timezone":"America/New_York","latitude":"34.0991","longitude":"-84.5206","description":null,"phone":null,"metroarea_name":null,"_id":null}},{"type":"Feature","geometry":{"type":"Point","coordinates":[37.4254,-121.96]},"properties":{"name":"redemption church - bay area","state":"CA","country":"US","postal_code":"95134","city":"San Jose","capacity":null,"popularity":null,"address":"105 nortech pkwy","url":"https://seatgeek.com/venues/redemption-church-bay-area/tickets","timezone":"America/Los_Angeles","latitude":"37.4254","longitude":"-121.96","description":null,"phone":null,"metroarea_name":null,"_id":null}},{"type":"Feature","geometry":{"type":"Point","coordinates":[39.0978,-94.5816]},"properties":{"name":"kc live","state":"MO","country":"US","postal_code":"64106","city":"Kansas City","capacity":8000,"popularity":null,"address":"1100 walnut street","url":"https://seatgeek.com/venues/kc-live/tickets","timezone":"America/Chicago","latitude":"39.0978","longitude":"-94.5816","description":null,"phone":null,"metroarea_name":null,"_id":null}}]}